SNCZI,RES_NAME,DAM_NAME,Altitude,CATCH_SKM,Crest_Leng,Elec_Capac,Ene_Annual,Foundation,Height,Irr_Area,LON,LAT,AREA_SKM,Res_Leng,CAP_MCM,Resettled,Spill_Cap,Spill_Type,Vol_flood,Year,main_use,single_use,fish,flood,hydropower,irrigation,navigation,other,recreation,supply,tailings
10,LA ACEÑA,LA ACEÑA,1319.0,48.0,323.0,,,R,66.0,,-4.221539,40.612486,1.15,10.0,24.0,,143.0,L,,1989.0,supply,True,False,False,False,False,False,False,False,True,False
25,EL AGRIO,EL AGRIO,109.5,228.0,232.0,,,R,46.0,,-6.283729,37.532242,1.65,53.0,21.0,,40.0,L,,1977.0,supply,True,False,False,False,False,False,False,False,True,False
33,AGUEDA,AGUEDA,639.6,910.0,196.0,,,R,38.0,,-6.481547,40.529915,1.77,15.0,22.0,,2673.0,V,,1931.0,supply,False,False,False,False,True,False,False,False,True,False
34,EL AGUIJON,EL AGUIJON,386.5,104.0,360.0,,,R,28.0,,-6.920872,38.473515,1.88,,11.0,,428.0,L,,1995.0,supply,True,False,False,False,False,False,False,False,True,False
36,AGUILAR DE CAMPOO,AGUILAR DE CAMPOO,943.3,546.0,500.0,,,R,48.0,,-4.287114,42.795432,16.46,52.0,247.0,,750.0,V,,1963.0,hydropower,False,False,False,True,True,False,False,False,False,False
52,ALANGE,ALANGE,278.98,2545.0,720.0,,,R,67.0,,-6.269846,38.787476,51.44,25.0,852.0,,1179.0,V,,1992.0,supply,False,False,False,True,True,False,False,False,True,False
53,ALARCON,ALARCON,814.0,3033.0,317.0,56.0,,R,67.0,,-2.112422,39.564478,68.4,24.0,1112.0,,1750.0,V,,1955.0,other,False,False,False,False,True,False,True,False,False,False
2584,ALBAGES,ALBAGES,387.0,160.0,750.0,,,R,85.0,,0.758713,41.451134,3.91,,80.0,,380.0,L,,2016.0,irrigation,True,False,False,False,True,False,False,False,False,False
58,ALBARELLOS,ALBARELLOS,267.0,214.0,285.0,,,R,90.0,,-8.190436,42.399788,3.36,56.0,91.0,,634.0,V,,1971.0,hydropower,True,False,False,True,False,False,False,False,False,False
68,ALCALA DEL RIO,ALCALA DEL RIO,15.35,46860.0,204.0,,,R,23.0,,-5.976112,37.518661,5.8,61.0,21.0,,8000.0,V,,1930.0,hydropower,False,False,False,True,True,False,False,False,False,False
1197,ALCANTARA,ALCANTARA II,223.0,51916.0,570.0,957.0,,R,130.0,,-6.884866,39.730283,104.0,440.0,3162.0,,4150.0,V,,1969.0,hydropower,True,False,False,True,False,False,False,False,False,False
74,ALCOLEA,ALCOLEA,62.0,1659.0,555.0,,,R,61.0,,-6.972483,37.462806,1.75,,274.0,,2417.0,L,,2016.0,irrigation,False,False,False,False,True,False,True,False,False,False
2917,ALCOLLARIN,ALCOLLARIN,332.0,127.0,626.0,,,R,31.0,,-5.74643,39.248306,5.54,,52.0,,89.0,L,,2015.0,supply,True,False,False,False,False,False,False,False,True,False
79,ALCORLO,ALCORLO,916.0,366.0,291.0,,,R,73.0,,-3.025103,41.008565,5.99,63.0,180.0,,260.0,L,,1978.0,supply,False,False,False,False,True,False,False,False,True,False
84,ALDEADAVILA,ALDEADAVILA,333.0,73458.0,250.0,1243.0,,R,140.0,,-6.685857,41.211923,3.68,60.0,114.0,,2400.0,V,,1963.0,hydropower,True,False,False,True,False,False,False,False,False,False
85,ALDEANUEVA,ALDEANUEVA,494.5,107.0,165.0,,,R,15.0,,-5.943251,40.262222,0.04,,116.0,,485.0,L,,1992.0,supply,True,False,False,False,False,False,False,False,True,False
93,ALFONSO XIII,ALFONSO XIII,303.0,734.0,87.0,,,R,46.0,,-1.599659,38.223238,2.89,28.0,23.0,,180.0,V,,1915.0,flood,False,False,True,False,True,False,False,False,False,False
110,ALLOZ,ALLOZ,469.69,155.0,74.0,,,R,67.0,,-1.942531,42.706202,9.3,23.0,65.0,,247.0,V,,1930.0,hydropower,False,False,False,True,True,False,False,False,False,False
116,ALMENDRA,ALMENDRA,732.0,7100.0,567.0,857.0,,R,202.0,,-6.320014,41.270453,86.5,216.0,2648.9999999999995,,3039.0,V,,1970.0,hydropower,True,False,False,True,False,False,False,False,False,False
132,AMADORIO,AMADORIO,129.65,205.0,333.0,,,R,64.0,,-0.264608,38.533969,1.03,12.0,16.0,,520.0,V,,1957.0,supply,False,False,False,False,True,False,False,False,True,False
151,AÑARBE,AÑARBE,163.5,65.0,304.0,,,,80.0,,-1.87525,43.212276,2.01,,44.0,,593.0,V,,1976.0,supply,True,False,False,False,False,False,False,False,True,False
143,ANDEVALO,ANDEVALO,117.0,738.0,1830.0,,,R,70.0,,-7.395859,37.621234,36.3,230.0,600.0,,417.0,L,,2003.0,other,True,False,False,False,False,False,True,False,False,False
153,ARACENA,ARACENA,345.5,408.0,612.0,,,,60.0,,-6.451678,37.907976,8.44,90.0,123.0,,1600.0,V,,1969.0,supply,True,False,False,False,False,False,False,False,True,False
160,ARBON,ARBON,35.67,2443.0,180.0,,,R,35.0,,-6.730027,43.47656,2.7,36.0,38.0,,3000.0,V,,1967.0,hydropower,True,False,False,True,False,False,False,False,False,False
165,ARCOS,ARCOS,69.0,25.0,191.0,,,R,22.0,,-5.795674,36.75147,2.8,13.0,14.0,,1728.0,V,,1965.0,hydropower,False,False,False,True,True,False,False,False,False,False
171,ARENOS,ARENOS,603.0,1430.0,428.0,,,R,105.0,,-0.549059,40.085788,3.9,20.0,118.0,,340.0,L,,1980.0,other,False,False,False,False,True,False,True,False,False,False
173,ARENOSO,ARENOSO,215.0,4000.0,1286.0,,,R,78.0,,-4.44294,38.022131,7.64,1480.0,161.0,,402.0,L,,2007.0,irrigation,False,False,False,True,True,False,False,False,False,False
174,ARGOS,ARGOS,416.66,453.0,316.0,,,,36.0,,-1.734209,38.172741,1.32,,11.0,,750.0,V,,1970.0,flood,False,False,True,False,True,False,False,False,False,False
179,ARLANZON,ARLANZON,1143.8,105.0,267.0,,,R,47.0,,-3.339801,42.263971,1.23,12.0,20.0,,143.0,L,,1933.0,supply,False,False,False,False,True,False,False,False,True,False
183,ARQUILLO DE SAN BLAS,ARQUILLO DE SAN BLAS,978.96,691.0,173.0,,,R,54.0,,-1.204891,40.364073,1.43,19.0,21.0,,500.0,L,,1962.0,supply,True,False,False,False,False,False,False,False,True,False
2835,ARROCAMPO,ARROCAMPO,258.0,97.0,218.0,,,R,36.0,,-5.73555,39.782718,7.73,,36.0,,35.0,V,,1976.0,other,True,False,False,False,False,False,True,False,False,False
216,EL ATANCE,EL ATANCE,911.14,317.0,184.0,,,R,45.0,,-2.78512,41.07534,2.8,23.0,35.0,,114.0,L,,1997.0,irrigation,True,False,False,False,True,False,False,False,False,False
217,EL ATAZAR,EL ATAZAR,873.4,946.0,484.0,,,R,134.0,,-3.473182,40.911826,10.7,60.0,425.0,,500.0,L,,1972.0,supply,True,False,False,False,False,False,False,False,True,False
231,AZUTAN,AZUTAN,357.0,35095.0,500.0,,,R,55.0,,-5.088987,39.778002,12.5,65.0,85.0,,6030.0,V,,1969.0,hydropower,False,False,False,True,True,False,False,False,False,False
234,LA BAELLS,LA BAELLS,632.35,355.0,302.0,,,R,102.0,,1.87819,42.121997,3.65,31.0,109.0,,740.0,V,,1976.0,supply,False,False,False,True,False,False,False,False,True,False
254,BAÑOS,BAÑOS DE MONTEMAYOR,610.0,28.0,1228.0,,,S,52.0,,-5.893993,40.281621,2.11,1.0,41.0,,49.0,L,,1992.0,irrigation,True,False,False,False,True,False,False,False,False,False
255,BAO,BAO,654.2,727.0,257.0,,,R,107.0,,-7.167077,42.246406,8.2,56.0,238.0,,1237.0,V,,1960.0,hydropower,True,False,False,True,False,False,False,False,False,False
256,BARASONA,BARASONA,448.67,1511.0,99.0,,,R,66.0,,0.310986,42.124344,6.92,26.0,92.0,,1738.0,V,,1932.0,supply,False,False,False,True,True,False,False,False,True,False
257,BARBATE,BARBATE,42.0,355.0,1359.0,,,R,30.0,,-5.741987,36.374787,25.4,122.0,231.0,,109.0,L,,1992.0,irrigation,True,False,False,False,True,False,False,False,False,False
259,LA BARCA,LA BARCA,213.5,1216.0,178.0,,,R,74.0,,-6.3042,43.320697,1.94,,31.0,,1760.0,V,,1966.0,hydropower,True,False,False,True,False,False,False,False,False,False
261,BARCENA,BARCENA,625.0,832.0,166.0,,,R,109.0,,-6.56034,42.577671,9.86,30.0,341.0,,1050.0,V,,1960.0,hydropower,False,False,False,True,True,False,False,False,True,False
284,BARRIE DE LA MAZA,BARRIE DE LA MAZA,249.0,1364.0,158.0,,,,48.0,,-8.797109000000003,42.86505,2.7,38.0,32.0,,1370.0,V,,1958.0,hydropower,True,False,False,True,False,False,False,False,False,False
285,BARRIOS DE LUNA,BARRIOS DE LUNA,1111.2,501.0,198.0,,,R,96.0,,-5.863781,42.849824,11.3,40.0,308.0,,1315.0,V,,1956.0,supply,False,False,False,True,True,False,False,False,True,False
290,BASERCA,BASERCA,1437.5,77.0,330.0,,,R,86.0,,0.758808,42.578666,0.93,6.0,22.0,,300.0,L,,1983.0,hydropower,False,False,False,True,False,False,True,False,False,False
2783,BELEÑA,BELEÑA,846.0,472.0,530.0,,,,57.0,,-3.19582,40.933746,2.45,17.0,50.0,,573.0,V,,1982.0,supply,True,False,False,False,False,False,False,False,True,False
312,BELESAR,BELESAR,332.0,4000.0,500.0,,,R,129.0,,-7.712595,42.628402,18.28,116.0,654.0,,1800.0,V,,1963.0,hydropower,True,False,False,True,False,False,False,False,False,False
314,BELLUS,BELLUS,159.0,494.0,704.0,,,R,46.0,,-0.478506,38.939517,7.03,40.0,69.0,,1300.0,V,,1995.0,flood,False,False,True,False,True,False,False,False,False,False
316,BEMBEZAR,BEMBEZAR,185.2,1078.0,277.0,,,R,99.0,,-5.210609,37.901881,10.7,138.0,347.0,,1500.0,V,,1963.0,supply,False,False,False,True,True,False,False,False,True,False
317,HORNACHUELOS,BEMBEZAR (DERIVACION),97.5,125.0,187.0,,,R,34.0,,-5.237045,37.824769,1.16,,21.0,,1600.0,V,,1961.0,other,True,False,False,False,False,False,True,False,False,False
319,BENAGEBER,BENAGEBER,530.0,3495.0,227.0,,,R,110.0,,-1.098826,39.726531,7.22,,221.0,,700.0,L,,1955.0,supply,False,False,False,True,True,False,False,False,True,False
324,BENIARRES,BENIARRES,320.65,470.0,395.0,,,R/S,53.0,,-0.356112,38.814967,2.68,26.0,27.0,,1050.0,V,,1958.0,irrigation,True,False,False,False,True,False,False,False,False,False
328,BENINAR,BENINAR,367.0,521.0,380.0,,,R,87.0,,-3.026025,36.876016,2.43,17.0,68.0,,285.0,V,,1983.0,supply,True,False,False,False,False,False,False,False,True,False
333,LOS BERMEJALES,LOS BERMEJALES,831.0,307.0,408.0,,,R,62.0,,-3.893409,36.996041,5.62,28.0,104.0,,600.0,L,,1958.0,supply,False,False,False,True,True,False,False,False,True,False
342,BEZNAR,BEZNAR,488.8,352.0,408.0,,,R,134.0,,-3.539969,36.915236,1.7,,54.0,,321.0,L,,1986.0,supply,False,False,False,True,True,False,False,False,True,False
351,DARNIUS BOADELLA,BOADELLA,160.0,182.0,250.0,,,R,63.0,,2.833314,42.34083,3.63,,61.0,,748.0,V,,1968.0,supply,False,False,False,True,True,False,False,False,True,False
356,BOLARQUE,BOLARQUE,643.0,7430.0,292.0,240.0,,R,36.0,,-2.818658,40.362144,5.1,,31.0,,1700.0,V,,1910.0,hydropower,False,False,False,True,True,False,False,False,False,False
358,LA BOLERA,LA BOLERA,973.0,163.0,108.0,,,R,48.0,,-2.903051,37.762233,2.65,21.0,56.0,,500.0,V,,1967.0,supply,False,False,False,False,True,False,False,False,True,False
365,BORBOLLON,BORBOLLON,295.75,340.0,225.0,,,R,35.0,,-6.577506,40.12521,8.88,28.0,85.0,,844.0,V,,1954.0,hydropower,False,False,False,True,True,False,False,False,False,False
369,BORNOS,BORNOS,108.5,1344.0,164.0,,,R,59.0,,-5.761321,36.790608,23.41,63.0,215.0,,1400.0,V,,1961.0,hydropower,False,False,False,True,True,False,False,False,False,False
386,BUBAL,BUBAL,1088.0,306.0,195.0,,,R,90.0,,-0.315964,42.680953,3.12,13.0,64.0,,800.0,V,,1971.0,supply,False,False,False,True,True,False,False,False,True,False
3518,BUENDIA,BUENDIA,714.28,3256.0,315.0,,,R,79.0,,-2.783704,40.398823,81.95,233.0,1638.0,,2000.0,V,,1958.0,hydropower,True,False,False,True,False,False,False,False,False,False
2920,BURDALO,BURDALO,318.5,576.0,768.0,,,R,35.0,,-5.980133,39.18898,10.11,,79.3,,85.0,L,,2015.0,supply,False,False,False,False,True,False,False,False,True,False
400,BURGOMILLODO,BURGOMILLODO,877.3,260.0,114.0,,,R,44.0,,-3.885469,41.337332,1.32,26.0,15.0,,100.0,L,,1953.0,hydropower,True,False,False,True,False,False,False,False,False,False
401,EL BURGUILLO,EL BURGUILLO,730.0,1050.0,300.0,,,R,92.0,,-4.53392,40.42467,9.1,40.0,209.0,,1175.0,V,,1913.0,supply,False,False,False,True,True,False,False,False,True,False
427,CALA,CALA,281.87,525.0,346.0,,,,53.0,,-6.088995,37.722201,4.37,,55.0,,144.0,V,,1927.0,supply,False,False,False,True,True,False,False,False,True,False
430,CALANDA,CALANDA,443.5,2691.0,250.0,,,R,64.0,,-0.211744,40.915426,3.12,29.0,54.0,,1150.0,V,,1982.0,supply,False,False,False,True,True,False,False,False,True,False
441,CAMARASA,CAMARASA,337.17,2850.0,216.0,,,R,103.0,,0.886738,41.907859,6.24,46.0,163.0,,2000.0,V,,1920.0,hydropower,False,False,False,True,True,False,False,False,False,False
442,CAMARILLAS,CAMARILLAS,350.32,1603.0,32.0,,,R,44.0,,-1.648942,38.339876,3.2,29.0,36.0,,154.0,V,,1961.0,flood,False,False,True,False,False,False,True,False,False,False
461,CAMPORREDONDO,CAMPORREDONDO,1292.2,228.0,160.0,,,R,76.0,,-4.737511,42.89917,3.88,22.0,70.0,,414.0,V,,1930.0,hydropower,True,False,False,True,False,False,False,False,False,False
474,CANALES,CANALES,920.0,176.0,340.0,,,R,158.0,,-3.479512,37.159273,1.56,16.0,71.0,,502.0,L,,1988.0,supply,False,False,False,True,True,False,False,False,True,False
481,LOS CANCHALES,LOS CANCHALES,226.4,292.0,239.0,,,R,21.0,,-6.523095,38.9629,9.7,19.0,40.0,,128.0,L,,1991.0,supply,False,False,False,True,True,False,False,False,True,False
484,CANCHO DEL FRESNO,CANCHO DEL FRESNO,629.5,30.0,217.0,,,R,57.0,,-5.390425,39.393058,0.97,10.0,15.0,,100.0,L,,1987.0,supply,False,False,False,True,True,False,False,False,True,False
489,CANELLES,CANELLES,508.0,1628.0,210.0,,,R,151.0,,0.612016,41.978794,15.69,106.0,678.0,,2000.0,V,,1960.0,hydropower,True,False,False,True,False,False,False,False,False,False
556,CASASOLA,CASASOLA,160.0,185.0,240.0,,,R,76.0,,-4.495726000000001,36.804766,1.12,18.0,24.0,,1400.0,L,,1999.0,supply,True,False,False,False,False,False,False,False,True,False
571,CASPE II,CASPE II,234.0,3705.0,398.0,,,S,50.0,,0.00073,41.135939,6.38,51.0,82.0,,2001.0,V,,1989.0,supply,True,False,False,False,False,False,False,False,True,False
589,CASTREJON,CASTREJON,427.0,24900.0,1336.0,,,R,26.0,,-4.295253,39.834876,7.5,,44.0,,5100.0,V,,1967.0,hydropower,False,False,False,True,True,False,False,False,False,False
592,CASTRELO,CASTRELO - MIÑO,90.0,13180.0,172.0,,,R,30.0,,-8.116214,42.292421,7.9,38.0,60.0,,9748.0,V,,1969.0,hydropower,True,False,False,True,False,False,False,False,False,False
593,CASTRO,CASTRO,568.3,63196.0,144.0,,,R,55.0,,-6.189122,41.575758,1.8,40.0,27.0,,475.0,V,,1952.0,hydropower,True,False,False,True,False,False,False,False,False,False
594,CASTRO DE LAS COGOTAS,CASTRO DE LAS COGOTAS,1054.5,860.0,299.0,,,R,67.0,,-4.697213,40.724722,3.94,24.0,59.0,,1163.0,V,,1994.0,supply,False,False,False,True,True,False,False,False,True,False
2897,CASTROVIDO,CASTROVIDO,1046.0,386.0,545.0,,,R,97.0,,-3.24308,42.042497,0.06,,111.0,,351.0,V,,2016.0,flood,False,False,True,True,False,False,False,False,False,False
603,CAVALLERS,CAVALLERS,1783.5,26.0,360.0,,,R,70.0,,0.854702,42.585318,0.47,,16.0,,164.0,L,,1960.0,hydropower,True,False,False,True,False,False,False,False,False,False
604,CAZALEGAS,CAZALEGAS,385.64,3993.0,1004.0,,,,17.0,,-4.70644,40.013318,1.5,,11.0,,1834.0,V,,1949.0,supply,False,False,False,False,True,False,False,False,True,False
609,CECEBRE,CECEBRE,36.0,228.0,220.0,,,S,23.0,,-8.301352,43.281722,3.63,,22.0,,390.0,V,,1976.0,supply,True,False,False,False,False,False,False,False,True,False
611,CEDILLO,CEDILLO,120.0,59000.0,418.0,500.0,,R,66.0,,-7.539668,39.663824,14.0,,260.0,,3500.0,V,,1978.0,hydropower,True,False,False,True,False,False,False,False,False,False
616,CELEMIN,CELEMIN,35.0,95.0,430.0,,,,34.0,,-5.774603,36.299338,4.72,24.0,43.0,,598.0,L,,1972.0,irrigation,True,False,False,False,True,False,False,False,False,False
620,EL CENAJO,EL CENAJO,437.2,1273.0,201.0,,,R,102.0,,-1.776009,38.365601,17.32,72.0,436.0,,838.0,V,,1960.0,flood,False,False,True,False,True,False,False,False,False,False
629,CERNADILLA,CERNADILLA,891.75,576.0,388.0,,,S,69.0,,-6.459081,42.01941,13.94,60.0,255.0,,1129.0,V,,1969.0,hydropower,True,False,False,True,False,False,False,False,False,False
644,CERVERA DE RUESGA,CERVERA,1042.5,54.0,130.0,,,R,36.0,,-4.527622,42.866096,1.06,12.0,10.0,,100.0,L,,1923.0,flood,False,False,True,False,True,False,False,False,False,False
647,CHANDREJA,CHANDREJA,911.5,151.0,236.0,,,R,85.0,,-7.386653,42.263082,2.45,16.0,61.0,,500.0,V,,1953.0,hydropower,True,False,False,True,False,False,False,False,False,False
648,CHANZA,CHANZA,66.0,1970.0,338.0,,,R,85.0,,-7.520592,37.558578,22.39,222.0,341.0,,1766.0,V,,1989.0,supply,False,False,False,True,True,False,False,False,True,False
659,CHARCO REDONDO,CHARCO REDONDO,88.0,95.0,311.0,,,R,72.0,,-5.54389,36.232435,5.08,43.0,80.0,,500.0,L,,1983.0,supply,True,False,False,False,False,False,False,False,True,False
686,CIJARA,CIJARA,429.5,25180.0,295.0,,,R,80.0,,-5.015645,39.373488,65.65,365.0,1505.0,,4760.0,V,,1956.0,supply,False,False,False,True,True,False,False,False,True,False
692,CIURANA,CIURANA,489.14,60.0,274.0,,,R,63.0,,0.913839,41.249629,0.8,10.0,12.0,,443.0,V,,1972.0,supply,False,False,False,False,True,False,False,False,True,False
694,EL COBANALLO,EL COBANALLO,1041.0,260.0,775.0,,,R,60.0,,-6.316599,42.254781,4.1,,62.0,,556.0,V,,1993.0,supply,False,False,False,False,True,False,False,False,True,False
701,LA COHILLA,LA COHILLA,780.85,90.0,288.0,,,R,116.0,,-4.388802,43.132764,4.5,7.0,12.0,,440.0,V,,1950.0,hydropower,True,False,False,True,False,False,False,False,False,False
705,LA COLADA,LA COLADA,478.0,395.0,274.0,,,R,48.0,,-5.009809,38.542392,5.29,,58.0,,446.0,L,,2006.0,supply,True,False,False,False,False,False,False,False,True,False
711,COLOMERA,COLOMERA,817.0,245.0,350.0,,,,62.0,,-3.721619,37.399278,2.58,19.0,42.0,,550.0,L,,1990.0,irrigation,True,False,False,False,True,False,False,False,False,False
716,COMPUERTO,COMPUERTO,1222.7,308.0,273.0,,,R,78.0,,-4.827332,42.860929,3.76,22.0,95.0,,528.0,V,,1960.0,supply,True,False,False,False,False,False,False,False,True,False
722,LA CONCEPCION,LA CONCEPCION,106.55,142.0,256.0,,,R,90.0,,-4.960799,36.535399,2.14,16.0,57.0,,580.0,V,,1971.0,supply,True,False,False,False,False,False,False,False,True,False
724,LAS CONCHAS,LAS CONCHAS,551.0,978.0,304.0,,,R,48.0,,-8.034825,41.944394,6.45,59.0,78.0,,900.0,V,,1949.0,hydropower,True,False,False,True,False,False,False,False,False,False
725,CONDE DE GUADALHORCE,CONDE DE GUADALHORCE,344.1,271.0,160.0,,,R,74.0,,-4.803632,36.933539,5.46,,66.0,,606.0,V,,1921.0,hydropower,True,False,False,True,False,False,False,False,False,False
731,CONTRERAS,CONTRERAS,679.0,3331.0,241.0,,,R,129.0,,-1.503196,39.543566,27.48,95.0,852.0,,2475.0,L,,1974.0,supply,False,False,False,True,True,False,False,False,True,False
735,CORDOBILLA,CORDOBILLA,218.25,5830.0,165.0,,,R,45.0,,-4.72116,37.349264,,,34.0,,3000.0,V,,1953.0,hydropower,False,False,False,True,True,False,False,False,False,False
741,CORTES II,CORTES II,332.0,17149.0,312.0,1750.0,1625.0,R,116.0,,-0.918581,39.261633,0.57,46.0,113.0,,6872.0,V,,1988.0,hydropower,True,False,False,True,False,False,False,False,False,False
753,CORUMBEL BAJO,CORUMBEL BAJO,74.5,174.0,118.0,,,R,28.0,,-6.5727,37.449105,3.96,37.0,18.0,,169.0,L,,1987.0,supply,False,False,False,False,True,False,False,False,True,False
782,CUBILLAS,CUBILLAS,647.0,626.0,368.0,,,R,42.0,,-3.683145,37.274702,1.94,9.0,21.0,,1200.0,L,,1956.0,irrigation,True,False,False,False,True,False,False,False,False,False
785,CUERDA DEL POZO,CUERDA DEL POZO,1085.6,550.0,425.0,,,R,40.0,,-2.704804,41.87592,21.76,65.0,229.0,,1100.0,V,,1941.0,supply,False,False,False,True,True,False,False,False,True,False
790,CUEVA FORADADA,CUEVA FORADADA,581.93,600.0,113.0,,,R,65.0,,-0.692568,40.987187,2.29,21.0,22.0,,622.0,L,,1926.0,supply,True,False,False,False,False,False,False,False,True,False
793,CUEVAS DE ALMANZORA,CUEVAS DE ALMANZORA,191.3,2122.0,669.0,,,R,117.0,,-1.894305,37.328058,5.26,34.0,169.0,,2520.0,L,,1986.0,supply,False,False,False,True,True,False,False,False,True,False
829,DOIRAS,DOIRAS,110.0,2288.0,165.0,,,R,89.0,,-6.825321,43.385994,3.47,55.0,115.0,,2393.0,V,,1934.0,hydropower,True,False,False,True,False,False,False,False,False,False
844,EBRO,EBRO,840.0,466.0,216.0,,,,34.0,,-4.052024000000001,42.970131,62.53,120.0,540.0,,560.0,V,,1945.0,supply,False,False,False,True,True,False,False,False,True,False
846,EDRADA-MAO,EDRADA,807.0,42.0,145.0,,,R,37.0,,-7.520828,42.33539,1.05,8.0,10.0,,150.0,V,,1978.0,hydropower,True,False,False,True,False,False,False,False,False,False
848,EIRAS,EIRAS,241.78,143.0,191.0,,,,51.0,,-8.489621,42.346587,1.49,23.0,22.0,,444.0,L,,1977.0,supply,True,False,False,False,False,False,False,False,True,False
856,EMBARCADEROS,EMBARCADEROS,365.0,16176.0,65.0,,,,32.0,,-1.034498,39.240862,0.5,,11.0,,,,,1952.0,,True,False,False,False,False,False,False,False,False,False
863,ENCINAREJO,ENCINAREJO,282.0,2421.0,170.0,,,,33.0,,-3.992801,38.164542,1.5,21.0,15.0,,1078.0,L,,1932.0,supply,False,False,False,True,False,False,False,False,True,False
866,ENCISO,ENCISO,878.5,270.0,376.0,,,R,103.0,,-2.279027,42.142754,1.6,,46.57,,757.0,L,,2015.0,supply,False,False,False,True,True,False,False,False,True,False
869,ENTREPEÑAS,ENTREPEÑAS,723.25,4060.0,383.0,,,R,87.0,,-2.750144,40.492817,32.13,34.0,803.0,,1500.0,V,,1956.0,hydropower,False,False,False,True,True,False,False,False,False,False
877,ESCALES,ESCALES,823.5,731.0,200.0,,,R,125.0,,0.743937,42.326475,4.0,31.0,158.0,,1000.0,V,,1955.0,hydropower,True,False,False,True,False,False,False,False,False,False
881,ESCALONA,ESCALONA,190.0,507.0,315.0,,,R,78.0,,-0.698447,39.128629,4.61,34.0,92.0,,7913.0,L,,1995.0,flood,True,False,True,False,False,False,False,False,False,False
902,EUGUI,EUGUI,630.0,69.0,252.0,,,R,51.0,,-1.513538,42.971748,1.23,11.0,22.0,,270.0,V,,1972.0,supply,False,False,False,True,False,False,False,False,True,False
903,EUME,EUME,321.0,500.0,284.0,,,R,103.0,,-8.011007,43.40723,4.25,50.0,123.0,,600.0,L,,1960.0,hydropower,True,False,False,True,False,False,False,False,False,False
916,LA FERNANDINA,LA FERNANDINA,454.4,663.0,462.0,,,R,98.0,,-3.569849,38.179775,12.3,120.0,244.0,,1064.0,V,,1991.0,irrigation,True,False,False,False,True,False,False,False,False,False
917,FERVENZA,FERVENZA,286.0,423.0,118.0,,,R,32.0,,-9.011106,42.98798,12.5,41.0,104.0,,637.0,V,,1966.0,hydropower,True,False,False,True,False,False,False,False,False,False
918,FINISTERRE,FINISTERRE,681.0,752.0,712.0,,,S,47.0,,-3.650894,39.651136,12.97,22.0,133.0,,205.0,L,,1977.0,supply,False,False,False,False,True,False,False,False,True,False
923,FLIX,FLIX,44.5,82300.0,400.0,,,S,26.0,,0.547278,41.232945,3.2,29.0,11.0,,9800.0,V,,1948.0,hydropower,False,False,False,True,True,False,True,False,False,False
938,FORATA,FORATA,389.2,1058.0,225.0,,,R,68.0,,-0.864787,39.34077,2.31,15.0,37.0,,900.0,V,,1969.0,irrigation,True,False,False,False,True,False,False,False,False,False
945,FRANCISCO ABELLAN,FRANCISCO ABELLAN,960.0,184.0,244.0,,,R,90.0,,-3.253562,37.312786,2.31,24.0,59.0,,340.0,L,,1998.0,irrigation,True,False,False,False,True,False,False,False,False,False
3259,LA FRESNEDA,LA FRESNEDA,719.55,135.0,193.0,,,,39.0,,-3.629565,38.558561,2.43,,13.0,,301.0,L,,1988.0,supply,True,False,False,False,False,False,False,False,True,False
956,FRIEIRA,FRIEIRA,69.0,15178.0,194.0,,,R,33.0,,-8.192625,42.155291,4.66,50.0,44.0,,11147.0,V,,1970.0,hydropower,True,False,False,True,False,False,False,False,False,False
958,FUENSANTA,FUENSANTA,607.18,1181.0,232.0,,,R,82.0,,-2.207758,38.391253,7.81,69.0,179.0,,681.0,L,,1933.0,flood,False,False,True,False,False,False,True,False,False,False
970,GABRIEL Y GALAN,GABRIEL Y GALAN,388.0,1850.0,1020.0,,,R,73.0,,-6.133032,40.22119,46.83,201.0,924.0,,2200.0,V,,1961.0,hydropower,False,False,False,True,True,False,False,False,False,False
993,GARCIA DE SOLA,GARCIA DE SOLA,364.0,1236.0,245.0,,,R,65.0,,-5.184458,39.144365,35.5,280.0,554.0,,4760.0,V,,1962.0,supply,False,False,False,True,True,False,False,False,True,False
996,GARGALIGAS,GARGALIGAS,360.0,165.0,1590.0,,,R/S,24.0,,-5.363216,39.190888,3.74,10.0,21.0,,481.0,L,,1999.0,supply,True,False,False,False,False,False,False,False,True,False
1019,GASSET,GASSET,624.5,600.0,178.0,,,R,17.0,,-3.93744,39.128679,7.36,24.0,42.0,,70.0,V,,1909.0,supply,False,False,False,False,True,False,False,False,True,False
971,GAIA,GAIA,131.0,390.0,384.0,,,,79.0,,1.331795,41.195665,3.26,31.0,60.0,,537.0,V,,1978.0,supply,True,False,False,False,False,False,False,False,True,False
1026,GERGAL,GERGAL,56.0,1755.0,288.0,,,R/S,62.0,,-6.049283,37.567134,2.52,,35.0,,1587.0,L,,1979.0,supply,True,False,False,False,False,False,False,False,True,False
1033,GIRIBAILE,GIRIBAILE,356.0,2932.0,686.0,,,R,84.0,,-3.512192,38.091809,24.93,90.0,475.0,,10058.0,L,,1996.0,hydropower,False,False,False,True,False,False,True,False,False,False
1038,GONZALEZ LACASA,GONZALEZ LACASA,996.5,40.0,316.0,,,R,70.0,,-2.672939,42.173836,1.52,7.0,33.0,,210.0,V,,1962.0,supply,False,False,False,True,True,False,False,False,True,False
1047,EL GRADO I,EL GRADO I,453.0,2375.0,959.0,,,R,130.0,,0.235369,42.150742,12.73,56.0,399.0,,3430.0,V,,1969.0,hydropower,False,False,False,True,True,False,False,False,True,False
1061,GUADALCACIN,GUADALCACIN,67.5,,81.0,,,R,44.0,,-5.786767,36.668264,7.82,,77.0,,514.0,L,,1917.0,irrigation,False,False,False,False,True,False,False,False,True,False
1062,GUADALCACIN II,GUADALCACIN II,110.0,353.0,260.0,,,R,82.0,,-5.786641,36.66835,36.7,124.0,800.0,,2450.0,L,,1995.0,supply,False,False,False,False,True,False,False,False,True,False
1064,GUADALEN,GUADALEN,352.0,1330.0,283.0,,,S,56.0,,-3.478203,38.161624,13.51,78.0,173.0,,1060.0,L,,1954.0,supply,False,False,False,True,True,False,False,False,True,False
1065,GUADALEST,GUADALEST,382.65,60.0,285.0,,,R,77.0,,-0.191917,38.679848,0.68,10.0,13.0,,520.0,V,,1964.0,supply,False,False,False,False,True,False,False,False,True,False
1066,GUADALHORCE,GUADALHORCE,367.0,1014.0,217.0,,,R,74.0,,-4.797678,36.94142,7.8,61.0,172.0,,2160.0,L,,1973.0,supply,False,False,False,True,True,False,False,False,True,False
1068,GUADALMELLATO,GUADALMELLATO,212.5,1209.0,396.0,,,,61.0,,-4.673052,38.041872,7.75,43.0,137.0,,868.0,V,,1928.0,supply,False,False,False,True,True,False,False,False,True,False
1070,GUADALMENA,GUADALMENA,602.17,1323.0,348.0,,,R,96.0,,-2.913995,38.363565,12.5,122.0,346.0,,1749.0,V,,1969.0,hydropower,False,False,False,True,True,False,False,False,False,False
1075,GUADALTEBA,GUADALTEBA,367.0,417.0,572.0,,,R,84.0,,-4.800382,36.940151,7.75,50.0,196.0,,2160.0,V,,1972.0,supply,False,False,False,True,True,False,False,False,True,False
1078,GUADARRANQUE,GUADARRANQUE,78.0,143.0,235.0,,,R,71.0,,-5.46248,36.307828,4.35,30.0,88.0,,1000.0,L,,1965.0,supply,False,False,False,False,True,False,False,False,True,False
1083,GUADILOBA,GUADILOBA,360.65,135.0,534.0,,,R,32.0,,-6.297483,39.4873,2.23,18.0,20.0,,220.0,V,,1971.0,supply,True,False,False,False,False,False,False,False,True,False
1085,GUAJARAZ,GUAJARAZ,607.6,375.0,332.0,,,,46.0,,-4.087429,39.799898,1.41,12.0,18.0,,470.0,V,,1971.0,supply,True,False,False,False,False,False,False,False,True,False
1089,GUIAMETS,GUIAMETS,185.87,75.0,189.0,,,R,50.0,,0.751619,41.098766,0.62,7.0,10.0,,212.0,L,,1983.0,irrigation,True,False,False,False,True,False,False,False,False,False
1125,HORNO TEJERO,HORNO TEJERO,328.0,75.0,300.0,,,R,37.0,,-6.432924,39.152478,4.0,21.0,24.0,,29.0,L,,1987.0,supply,True,False,False,False,False,False,False,False,True,False
1145,HUESNA,HUESNA,278.5,459.0,278.0,,,,73.0,,-5.68491,37.769595,7.38,78.0,135.0,,470.0,L,,1990.0,supply,False,False,False,True,True,False,False,False,True,False
1146,LOS HURONES,LOS HURONES,219.0,288.0,405.0,,,R,76.0,,-5.5617,36.661328,9.0,63.0,135.0,,917.0,V,,1964.0,supply,False,False,False,True,True,False,False,False,True,False
1148,IBAI-EDER,IBAI-EDER,227.0,29.0,252.0,,,R,66.0,,-2.227006,43.128708,0.52,9.0,11.0,,300.0,L,,1991.0,supply,True,False,False,False,False,False,False,False,True,False
1156,IRABIA,IRABIA,820.0,125.0,163.0,,,R,44.0,,-1.15747,42.985092,0.94,15.0,14.0,,72.0,L,,1925.0,hydropower,False,False,False,True,True,False,True,False,False,False
2950,IRUEÑA,IRUEÑA,778.0,460.0,420.0,,,R,75.0,,-6.579266,40.444367,5.8,,110.0,,1138.0,L,,2005.0,irrigation,True,False,False,False,True,False,False,False,False,False
1165,ITOIZ,ITOIZ,592.0,510.0,525.0,,,R,122.0,,-1.360974,42.802486,11.0,80.0,418.0,,574.0,L,,2003.0,supply,False,False,False,True,True,False,False,False,True,False
1167,IZNAJAR,IZNAJAR,426.0,5000.0,407.0,,,,122.0,,-4.386485000000001,37.275812,25.22,118.0,1067.0,,6553.0,V,,1969.0,supply,False,False,False,True,True,False,False,False,True,False
1172,JANDULA,JANDULA,363.5,2300.0,240.0,,,R,88.0,,-3.973961,38.224797,13.5,62.0,314.0,,1200.0,L,,1932.0,supply,False,False,False,True,True,False,False,False,True,False
1185,JARRAMA,JARRAMA,249.0,160.0,292.0,,,R,41.0,,-6.509399,37.667312,3.42,,39.0,,464.0,L,,1998.0,supply,False,False,False,False,True,False,False,False,True,False
1188,JERTE,JERTE,372.0,379.0,503.0,,,R,42.0,,-6.041708,40.060074,6.67,30.0,59.0,,860.0,L,,1985.0,supply,False,False,False,False,True,False,False,False,True,False
1198,JOSE TORAN,JOSE TORAN,150.65,243.0,362.0,,,R,77.0,,-5.484881,37.747915,6.43,50.0,101.0,,353.0,L,,1992.0,supply,False,False,False,False,True,False,False,False,True,False
1199,PORMA,JUAN BENET,1097.6,253.0,251.0,,,R,78.0,,-5.293264,42.929028,11.53,53.0,317.0,,500.0,V,,1968.0,supply,False,False,False,True,True,False,False,False,True,False
1226,LANUZA,LANUZA,1286.6,114.0,176.0,,,R,80.0,,-0.314527,42.750227,1.14,3.0,25.0,,400.0,V,,1978.0,hydropower,True,False,False,True,False,False,False,False,False,False
1915,LECHAGO,LECHAGO,895.0,469.0,330.0,,,S,39.0,,-1.300678,40.96616,1.86,,20.0,,232.0,L,,2007.0,other,False,False,False,True,True,False,True,False,False,False
1255,EL LIMONERO,EL LIMONERO,119.0,166.0,414.0,,,R,95.0,,-4.431320000000001,36.759576,1.05,15.0,25.0,,614.0,L,,1983.0,supply,True,False,False,False,False,False,False,False,True,False
1257,LINARES DEL ARROYO,LINARES DEL ARROYO,916.6,716.0,112.0,,,R,36.0,,-3.555912,41.527367,5.55,29.0,54.0,,618.0,V,,1951.0,hydropower,False,False,False,True,True,False,False,False,True,False
1272,LA LLOSA DEL CAVALL,LA LLOSA DEL CAVALL,810.3,196.0,326.0,,,R,122.0,,1.582932,42.099703,0.03,,79.0,,281.0,L,,1999.0,supply,True,False,False,False,False,False,False,False,True,False
1285,LORIGUILLA,LORIGUILLA,322.5,616.0,198.0,,,R,79.0,,-0.913217,39.665558,3.64,35.0,73.0,,2000.0,V,,1965.0,other,False,False,False,False,True,False,True,False,False,False
1290,LA LOTETA,LA LOTETA,292.0,31.0,1472.0,,,R,34.0,,-1.323767,41.824293,10.87,33.0,105.0,,1.0,L,,2005.0,supply,True,False,False,False,False,False,False,False,True,False
1296,LOS MACHOS,LOS MACHOS,30.0,84.0,310.0,,,R,30.0,,-7.204156,37.313827,1.82,15.0,12.0,,33.0,L,,1987.0,irrigation,False,False,False,False,True,False,False,False,True,False
1306,MAIDEVERA,MAIDEVERA,803.0,76.0,318.0,,,R,54.0,,-1.760688,41.574714,1.34,13.0,18.0,,84.0,L,,1983.0,supply,False,False,False,False,True,False,False,False,True,False
1321,MANSILLA,MANSILLA,932.0,290.0,209.0,,,R,80.0,,-2.911763,42.158186,1.34,48.0,18.0,,575.0,V,,1960.0,supply,False,False,False,True,True,False,False,False,True,False
3172,MANSILLA (CONTRAEMBALSE),MANSILLA CONTRAEMBALSE,857.8,290.0,75.0,,,R,19.0,,-2.909617,42.160604,1.34,,18.0,,761.0,L,,1960.0,other,True,False,False,False,False,False,True,False,False,False
1324,SANTILLANA,MANZANARES EL REAL,897.0,244.0,1355.0,,,R,40.0,,-3.817363,40.706181,10.44,30.0,91.0,,270.0,V,,1969.0,supply,False,False,False,True,False,False,False,False,True,False
1333,MARIA CRISTINA,MARIA CRISTINA,138.22,1560.0,318.0,,,R,57.0,,-0.163894,40.028403,2.56,14.0,20.0,,597.0,L,,1920.0,irrigation,True,False,False,False,True,False,False,False,False,False
1336,MARISANCHEZ,MARISANCHEZ,766.0,517.0,698.0,,,R,30.0,,-3.276887,38.692444,6.9,24.0,43.0,,372.0,L,,1991.0,supply,False,False,False,False,True,False,False,False,True,False
1342,MARTIN GONZALO II,MARTIN GONZALO II,286.07,48.0,235.0,,,R,55.0,,-4.339213,38.091742,2.82,,15.0,,320.0,L,,1989.0,supply,True,False,False,False,False,False,False,False,True,False
3101,MATALAVILLA,MATALAVILLA,961.0,58.0,240.0,,,R,115.0,,-6.453438,42.834374,1.88,9.0,61.0,,252.0,V,,1967.0,hydropower,True,False,False,True,False,False,False,False,False,False
1364,MEDIANO,MEDIANO,529.5,2078.0,500.0,,,R,92.0,,0.211101,42.313624,17.14,53.0,436.0,,3232.0,V,,1959.0,hydropower,False,False,False,True,True,False,False,False,False,False
1367,LOS MELONARES,LOS MELONARES,87.25,558.0,525.0,,,R,50.0,,-5.882964,37.723122,14.6,,186.0,,1298.0,L,,2007.0,supply,True,False,False,False,False,False,False,False,True,False
1378,MEQUINENZA,MEQUINENZA,124.0,55000.0,461.0,384.0,,R,79.0,,0.273199,41.368822,75.4,585.0,1530.0,,11000.0,V,,1964.0,hydropower,False,False,False,True,True,False,False,False,False,False
1395,LA MINILLA,LA MINILLA,160.0,1032.0,267.0,,,R/S,62.0,,-6.185603,37.664833,3.63,47.0,53.0,,1584.0,V,,1956.0,supply,False,False,False,True,False,False,False,False,True,False
1421,LOS MOLINOS DE MATACHEL,LOS MOLINOS DE MATACHEL,353.0,1203.0,305.0,,,R,33.0,,-6.121788,38.53306,3.88,48.0,34.0,,1000.0,L,,1983.0,supply,False,False,False,False,True,False,False,False,True,False
1445,MONTEAGUDO DE LAS VICARIAS,MONTEAGUDO DE LAS VICARIAS,822.36,199.0,803.0,,,R,16.0,,-2.174211,41.378651,1.23,7.0,10.0,,20.0,L,,1982.0,irrigation,True,False,False,False,True,False,False,False,False,False
1450,MONTEARAGON,MONTEARAGON,585.0,144.0,338.0,,,R,86.0,,-0.360961,42.182455,2.03,,43.0,,536.0,L,,2007.0,irrigation,False,False,False,False,True,False,False,False,True,False
1455,MONTEFURADO,MONTEFURADO,292.0,1587.0,155.0,38.0,,R,42.0,,-7.218339,42.390993,0.75,15.0,10.0,,263.0,V,,1954.0,hydropower,True,False,False,True,False,False,False,False,False,False
1458,MONTEJAQUE,MONTEJAQUE,693.5,44.0,84.0,,,R,84.0,,-5.239717,36.753636,1.78,9.0,36.0,,320.0,L,,1924.0,hydropower,True,False,False,True,False,False,False,False,False,False
1462,MONTIJO,MONTIJO,208.12,42000.0,927.0,,,R,22.0,,-6.428354,38.92371,2.9,16.0,11.0,,7100.0,L,,1954.0,supply,False,False,False,False,True,False,False,False,True,False
1463,MONTORO III,MONTORO III,571.0,557.0,308.0,,,R,60.0,,-4.100111,38.52549,5.42,,102.0,,585.0,L,,2007.0,supply,True,False,False,False,False,False,False,False,True,False
1487,MULARROYA,MULARROYA,484.0,289.0,776.0,,,R,91.0,,-1.429678,41.467095,4.63,,103.26,,191.0,L,,2016.0,irrigation,True,False,False,False,True,False,False,False,False,False
1494,EL NARANJERO,EL NARANJERO,247.27,17149.0,191.0,,,R,84.0,,-0.851183,39.27768,1.25,17.0,29.0,,6992.0,V,,1989.0,hydropower,True,False,False,True,False,False,False,False,False,False
1502,NAVALCAN,NAVALCAN,372.0,359.0,190.0,,,R,25.0,,-5.142288,40.048249,7.46,38.0,34.0,,508.0,V,,1977.0,supply,False,False,False,False,True,False,False,False,True,False
1525,NEGRATIN,NEGRATIN,642.5,3870.0,439.0,,,R,75.0,,-2.954121,37.559956,21.7,75.0,546.0,,3440.0,V,,1984.0,hydropower,False,False,False,True,True,False,False,False,False,False
1541,NOGALES,NOGALES,369.4,105.0,315.0,,,R,38.0,,-6.736529,38.563871,1.52,17.0,15.0,,198.0,L,,1991.0,supply,False,False,False,False,True,False,False,False,True,False
1544,NUESTRA SEÑORA DEL AGAVANZAL,NUESTRA SEÑORA DEL AGAVANZAL,787.5,1314.0,481.0,,,R,42.0,,-6.141315,41.978124,3.65,42.0,36.0,,1680.0,V,,1994.0,hydropower,False,False,False,True,True,False,False,False,False,False
1558,OLIANA,OLIANA,519.6,2672.0,268.0,,,R,102.0,,1.294026,42.092697,4.43,40.0,101.0,,2000.0,V,,1959.0,supply,False,False,False,True,True,False,False,False,True,False
1564,ORDUNTE,ORDUNTE,310.0,48.0,376.0,,,R,56.0,,-3.283904,43.160443,1.39,,22.0,,300.0,L,,1934.0,supply,True,False,False,False,False,False,False,False,True,False
1565,ORELLANA,ORELLANA,320.0,400.0,737.0,,,R,63.0,,-5.537539,38.985767,48.63,218.0,808.0,,3300.0,V,,1961.0,supply,False,False,False,True,True,False,False,False,True,False
1579,PAJARES,PAJARES,1233.0,98.0,501.0,,,R,73.0,,-2.610304,42.088955,1.62,7.0,35.0,,265.0,L,,1994.0,supply,False,False,False,False,True,False,False,False,True,False
1590,PALMACES,PALMACES,886.0,275.0,116.0,,,R,43.0,,-2.939959,41.050521,2.7,28.0,31.0,,300.0,V,,1954.0,irrigation,True,False,False,False,True,False,False,False,False,False
1611,EL PARDO,EL PARDO,632.0,528.0,830.0,,,R,35.0,,-3.790541,40.538917,5.5,40.0,45.0,,750.0,V,,1970.0,other,True,False,False,False,False,False,True,False,False,False
1640,LOS PEARES,LOS PEARES,196.5,4442.0,261.0,,,R,94.0,,-7.724032,42.465227,5.35,46.0,182.0,,3568.0,V,,1955.0,hydropower,True,False,False,True,False,False,False,False,False,False
1643,LA PEDRERA,LA PEDRERA,110.5,35.0,716.0,,,R,66.0,,-0.875645,38.032543,12.72,32.0,246.0,,,,,1983.0,supply,True,False,False,False,False,False,False,False,True,False
1645,PEDREZUELA,PEDREZUELA,830.5,216.0,218.0,,,R,52.0,,-3.62478,40.756539,3.93,42.0,41.0,,382.0,V,,1967.0,supply,True,False,False,False,False,False,False,False,True,False
1649,PEDRO MARIN,PEDRO MARIN,322.5,9050.0,190.0,,,,32.0,,-3.413014,37.908958,2.6,24.0,19.0,,2400.0,V,,1954.0,hydropower,False,False,False,True,True,False,True,False,False,False
1657,PENA,PENA,619.03,160.0,133.0,,,R,46.0,,0.134346,40.819525,1.49,8.0,18.0,,134.0,L,,1930.0,supply,False,False,False,False,True,False,False,False,True,False
1659,PEÑA DEL AGUILA,PEÑA DEL AGUILA,240.0,,89.0,,,,25.0,,-6.079396,39.07556,3.0,,10.0,,629.0,L,,1903.0,supply,True,False,False,False,False,False,False,False,True,False
1665,LA PEÑA,LA PEÑA,541.0,1620.0,112.0,,,,61.0,,-0.735784,42.383861,3.21,,25.0,,2900.0,V,,1913.0,irrigation,True,False,False,False,True,False,False,False,False,False
1673,PEÑARROYA,PEÑARROYA,737.5,882.0,250.0,,,,50.0,,-3.006756,39.06015,4.12,39.0,48.0,,540.0,L,,1959.0,supply,False,False,False,False,True,False,False,False,True,False
1674,PEÑARRUBIA,PEÑARRUBIA,397.42,3300.0,149.0,,,,36.0,,-6.818819,42.456117,1.37,,12.0,,2750.0,V,,1961.0,hydropower,True,False,False,True,False,False,False,False,False,False
1698,PIAS,PIAS,1042.0,181.0,260.0,,,R,47.0,,-6.990051,42.102075,0.7,,10.0,,542.0,V,,1961.0,hydropower,True,False,False,True,False,False,False,False,False,False
1699,PICADAS,PICADAS,519.5,1895.0,145.0,,,R,58.0,,-4.249241,40.333362,0.92,18.0,15.0,,1240.0,V,,1952.0,supply,False,False,False,True,True,False,False,False,True,False
1703,PIEDRA AGUDA,PIEDRA AGUDA,226.45,217.0,213.0,,,,30.0,,-7.02183,38.687101,2.58,,16.0,,850.0,L,,1956.0,supply,False,False,False,False,True,False,False,False,True,False
1709,PIEDRAS,PIEDRAS,73.0,200.0,620.0,,,R,40.0,,-7.266083,37.366815,7.96,44.0,60.0,,750.0,L,,1968.0,supply,False,False,False,False,True,False,False,False,True,False
1727,LA PINILLA,LA PINILLA,1090.0,246.0,294.0,,,,33.0,,-3.774147,40.945093,4.8,16.0,38.0,,350.0,V,,1967.0,supply,False,False,False,True,False,False,False,False,True,False
1730,EL PINTADO,EL PINTADO,342.5,1100.0,356.0,,,R,86.0,,-5.954075,37.984325,10.5,5.0,202.0,,1400.0,V,,1948.0,hydropower,False,False,False,True,True,False,False,False,False,False
1764,PORTAJE,PORTAJE,304.4,99.0,369.0,,,R,30.0,,-6.541929,39.890871,4.73,20.0,23.0,,47.0,L,,1986.0,irrigation,True,False,False,False,True,False,False,False,False,False
1767,LAS PORTAS,LAS PORTAS,886.0,168.0,477.0,,,R,141.0,,-7.209134,42.114301,11.83,53.0,536.0,,200.0,L,,1974.0,hydropower,True,False,False,True,False,False,False,False,False,False
1771,EL PORTILLO,EL PORTILLO,921.0,110.0,327.0,,,,83.0,,-2.787459,37.803935,1.42,11.0,34.0,,500.0,L,,1999.0,hydropower,False,False,False,True,True,False,False,False,False,False
1773,PORTODEMOUROS,PORTODEMOUROS,257.0,1190.0,469.0,,,R,91.0,,-8.190737,42.85662,12.05,74.0,297.0,,1550.0,L,,1967.0,hydropower,True,False,False,True,False,False,False,False,False,False
1786,PRADA,PRADA,847.0,256.0,280.0,,,R,85.0,,-7.04067,42.310593,6.05,,121.0,,800.0,V,,1958.0,hydropower,True,False,False,True,False,False,False,False,False,False
1796,PUEBLA DE CAZALLA,PUEBLA DE CAZALLA,278.0,298.0,220.0,,,R,71.0,,-5.24344,37.129803,3.32,38.0,74.0,,400.0,L,,1994.0,flood,False,False,True,False,True,False,False,False,False,False
1800,PUENTE DE SANTOLEA,PUENTE DE SANTOLEA,691.0,1250.0,133.0,,,R,35.0,,-0.342908,40.747155,1.321,,17.67,,520.0,L,,2010.0,supply,False,False,False,True,True,False,False,False,True,False
1803,PUENTE NUEVO,PUENTE NUEVO,446.8,980.0,232.0,,,R,55.0,,-4.925351,38.086051,20.52,64.0,287.0,,1575.0,V,,1972.0,supply,False,False,False,True,True,False,False,False,True,False
1807,PUENTES,PUENTES IV,474.0,1388.0,382.0,,,R,78.0,,-1.819235,37.734764,0.35,,26.0,,2026.0,L,,2000.0,flood,False,False,True,False,True,False,False,False,False,False
1808,PUENTES VIEJAS,PUENTES VIEJAS,955.22,661.0,324.0,,,R,66.0,,-3.571351,40.99331,0.28,46.0,49.0,,264.0,V,,1940.0,supply,True,False,False,False,False,False,False,False,True,False
1828,QUENTAR,QUENTAR,1041.0,102.0,200.0,,,S,133.0,,-3.437841,37.20309,0.42,8.0,14.0,,600.0,V,,1975.0,supply,False,False,False,False,True,False,False,False,True,False
1829,QUIEBRAJANO,QUIEBRAJANO,788.5,99.0,212.0,,,R,72.0,,-3.728786,37.632858,1.26,14.0,32.0,,229.0,L,,1976.0,supply,True,False,False,False,False,False,False,False,True,False
1840,RAMBLA DE ALGECIRAS,RAMBLA DE ALGECIRAS,274.0,46.0,636.0,,,R,82.0,,-1.385608,37.88742,2.44,44.0,45.0,,20.0,L,,1995.0,flood,False,False,True,False,False,False,True,False,False,False
1841,RAMBLA DE BAYCO,RAMBLA DE BAYCO,697.0,243.0,645.0,,,R,43.0,,-1.501908,38.640003,2.2,3.0,14.0,,380.0,L,,1999.0,flood,True,False,True,False,False,False,False,False,False,False
1844,RAMBLA DEL BOQUERON,RAMBLA DEL BOQUERON,606.0,53.0,290.0,,,R,57.0,,-1.762447,38.522552,1.08,9.0,15.0,,309.0,L,,1997.0,flood,True,False,True,False,False,False,False,False,False,False
1880,REQUEJADA,REQUEJADA,1083.0,247.0,200.0,,,R,57.0,,-4.529457,42.906258,3.33,20.0,65.0,,450.0,V,,1940.0,supply,False,False,False,False,True,False,False,False,True,False
1887,RETORTILLO,RETORTILLO,189.0,311.0,156.0,,,R,53.0,,-5.349355,37.841326,0.6,62.0,73.0,,618.0,V,,1970.0,supply,False,False,False,False,True,False,False,False,True,False
3181,RIALB,RIALB,436.0,3320.0,606.0,,,R,99.0,,1.193733,41.940403,15.05,95.0,403.0,,3089.0,L,,2000.0,supply,True,False,False,False,False,False,False,False,True,False
1898,RIAÑO,RIAÑO,1102.5,620.0,337.0,,,R,100.0,,-5.084696,42.933694,23.0,103.0,664.0,,1142.0,L,,1988.0,hydropower,False,False,False,True,True,False,False,False,False,False
1902,RIBARROJA,RIBARROJA,76.0,80823.0,362.0,263.0,,R,60.0,,0.432801,41.243707,20.29,140.0,207.0,,11670.0,V,,1969.0,supply,False,False,False,True,True,False,False,False,True,False
1904,LA RIBEIRA,LA RIBEIRA,401.35,122.0,280.0,,,,54.0,,-7.829518,43.459149,1.62,24.0,33.0,,500.0,V,,1961.0,hydropower,True,False,False,True,False,False,False,False,False,False
1907,RICOBAYO,RICOBAYO,685.0,17020.0,270.0,,,R,99.0,,-5.985296,41.527423,58.55,380.0,1200.0,,775.0,V,,1934.0,hydropower,True,False,False,True,False,False,False,False,False,False
1924,RIOSEQUILLO,RIOSEQUILLO,1010.45,380.0,1060.0,,,R,56.0,,-3.64789,40.984466,3.26,26.0,49.0,,386.0,V,,1956.0,supply,False,False,False,True,False,False,False,False,True,False
1934,RIVERA DE GATA,RIVERA DE GATA,351.5,180.0,356.0,,,R,61.0,,-6.633575,40.134971,2.98,25.0,46.5,,328.0,L,,1990.0,supply,False,False,False,False,True,False,False,False,True,False
1940,LOS RODEOS,LOS RODEOS,135.0,647.0,295.0,,,,38.0,,-1.293983,38.043562,1.58,24.0,15.0,,1096.0,L,,2002.0,flood,True,False,True,False,False,False,False,False,False,False
1951,ROSARITO,ROSARITO,308.8,1754.0,123.0,,,R,38.0,,-5.323863,40.10999,14.75,25.0,85.0,,1560.0,V,,1958.0,irrigation,True,False,False,False,True,False,False,False,False,False
1953,LAS ROZAS,LAS ROZAS,961.0,354.0,171.0,,,R,71.0,,-6.350312,42.907091,1.6,,28.0,,1028.0,V,,1968.0,hydropower,True,False,False,True,False,False,False,False,False,False
1961,RUECAS,RUECAS,393.05,135.0,800.0,,,R,43.0,,-5.495825,39.267414,3.97,22.0,42.0,,391.0,L,,1995.0,hydropower,False,False,False,True,False,False,False,False,True,False
1964,RULES,RULES,250.0,1070.0,509.0,,,R,132.0,,-3.494382,36.85957,3.09,,113.0,,2987.0,L,,2003.0,supply,True,False,False,False,False,False,False,False,True,False
1965,RUMBLAR,RUMBLAR,344.0,550.0,220.0,,,R,68.0,,-3.805389,38.160712,6.6,36.0,126.0,,485.0,L,,1941.0,supply,False,False,False,False,True,False,False,False,True,False
1976,SALAS,SALAS,835.5,145.0,1005.0,,,R,50.0,,-7.942622,41.925303,6.86,36.0,87.0,,540.0,V,,1971.0,hydropower,True,False,False,True,False,False,False,False,False,False
1980,SALIME,SALIME,227.67,1806.0,250.0,,,R,125.0,,-6.847594,43.236512,6.85,90.0,266.0,,1658.0,V,,1956.0,hydropower,False,False,False,True,False,False,True,False,False,False
1984,SALOR,SALOR,398.1,160.0,612.0,,,R,21.0,,-6.310683,39.363667,4.0,28.0,14.0,,300.0,L,,1964.0,irrigation,True,False,False,False,True,False,False,False,False,False
2873,,SAN CIPRIAN/RSA I,89.0,,,,,,72.0,,-7.495062,43.710602,,,22.68,,,X,,1980.0,tailings,True,False,False,False,False,False,False,False,False,True
2007,SAN CLEMENTE,SAN CLEMENTE,1064.0,152.0,580.0,,,,92.0,,-2.649508,37.857914,6.22,25.0,120.0,,620.0,V,,1990.0,irrigation,True,False,False,False,True,False,False,False,False,False
2011,SAN ESTEBAN,SAN ESTEBAN,231.0,7216.0,295.0,,,R,115.0,,-7.649574,42.414491,14.62,80.0,213.0,,5562.0,V,,1955.0,hydropower,True,False,False,True,False,False,False,False,False,False
2018,SAN JUAN,SAN JUAN,583.0,1911.0,230.0,,,R,78.0,,-4.312005,40.372918,6.5,42.0,148.0,,1600.0,V,,1955.0,supply,False,False,False,True,True,False,False,False,True,False
2024,SAN LORENZO MONGAY,SAN LORENZO MONGAY,249.17,7110.0,944.0,,,R,25.0,,0.836506,41.852861,1.31,11.0,10.0,,,V,,1930.0,hydropower,False,False,False,True,True,False,False,False,False,False
2029,SAN MARTIN,SAN MARTIN,296.8,4740.0,125.0,,,,26.0,,-7.173171,42.390533,1.67,18.0,10.0,,4000.0,V,,1956.0,hydropower,True,False,False,True,False,False,False,False,False,False
2044,SANT PONS,SAN PONS,531.5,117.0,311.0,,,R,60.0,,1.60512,41.962937,1.44,18.0,24.0,,734.0,V,,1957.0,irrigation,False,False,False,True,True,False,False,False,True,False
2048,SAN RAFAEL DE NAVALLANA,SAN RAFAEL DE NAVALLANA,162.0,1287.0,364.0,,,R,57.0,,-4.627304,37.956109,9.88,97.0,157.0,,1791.0,V,,1991.0,supply,False,False,False,False,True,False,False,False,True,False
2050,SAN SALVADOR,SAN SALVADOR,301.0,27.0,683.0,,,,51.0,,0.181559,41.77348,10.545,,123.5,,1.0,L,,2013.0,irrigation,True,False,False,False,True,False,False,False,False,False
2051,SAN SEBASTIAN,SAN SEBASTIAN,1200.1,130.0,292.0,,,R,60.0,,-6.947286,42.144251,1.94,,46.0,,360.0,V,,1959.0,hydropower,True,False,False,True,False,False,False,False,False,False
2067,SANTA ANA,SANTA ANA,380.0,1758.0,242.0,,,R,100.0,,0.58043,41.882686,7.68,28.0,237.0,,1920.0,V,,1961.0,supply,False,False,False,True,True,False,False,False,True,False
2075,SANTA EUGENIA,SANTA EUGENIA,209.0,59.0,288.0,,,,80.0,,-9.104233,42.915012,0.68,13.0,14.0,,711.0,V,,1988.0,hydropower,True,False,False,True,False,False,False,False,False,False
2076,SANTA EULALIA,SANTA EULALIA,528.0,309.0,212.0,,,R,73.0,,-7.063919,42.34853,0.41,9.0,11.0,,960.0,V,,1966.0,hydropower,True,False,False,True,False,False,False,False,False,False
2083,SANTA MARIA BELSUE,SANTA MARIA BELSUE,896.4,190.0,127.0,,,R,52.0,,-0.347292,42.302357,0.83,,13.0,,130.0,L,,1931.0,irrigation,True,False,False,False,True,False,False,False,False,False
2091,SANTA TERESA,SANTA TERESA,887.2,1853.0,517.0,,,R,58.0,,-5.601397,40.666968,25.79,90.0,496.0,,2050.0,V,,1960.0,hydropower,False,False,False,True,True,False,False,False,True,False
2099,SANTOLEA,SANTOLEA RECRECIDO,600.0,1250.0,282.0,,,R,65.0,,-0.322482,40.762617,4.896,,93.72,,520.0,V,,2016.0,supply,False,False,False,True,True,False,False,False,True,False
2101,SANTOMERA,SANTOMERA,101.5,453.0,206.0,,,R,52.0,,-1.088537,38.095491,7.23,,26.0,,296.0,V,,1965.0,flood,False,False,True,False,True,False,False,False,False,False
2109,SAU,SAU,426.54,1522.0,260.0,,,R,83.0,,2.412765,41.967835,5.73,45.0,168.0,,2486.0,V,,1963.0,supply,False,False,False,True,True,False,False,False,True,False
2111,SAUCELLE,SAUCELLE,194.5,73715.0,189.0,520.0,,R,83.0,,-6.804163,41.047366,5.89,50.0,182.0,,1300.0,V,,1956.0,hydropower,True,False,False,True,False,False,False,False,False,False
2126,SEQUEIROS,SEQUEIROS,257.1,6140.0,176.0,,,R,22.0,,-7.251148,42.450869,1.15,,11.0,,2007.0,V,,1951.0,hydropower,True,False,False,True,False,False,False,False,False,False
2127,LA SERENA,LA SERENA,355.55,7333.0,580.0,,,R,91.0,,-5.413384,38.912741,139.49,559.0,3219.0000000000005,,2616.0,V,,1990.0,supply,False,False,False,True,True,False,False,False,True,False
2138,SICHAR,SICHAR,167.5,2334.0,581.0,,,R,58.0,,-0.231099,40.010064,3.17,20.0,49.0,,1800.0,V,,1960.0,other,False,False,False,False,True,False,True,False,False,False
2140,SIERRA BOYERA,SIERRA BOYERA,503.0,439.0,510.0,,,R,33.0,,-5.22284,38.257998,5.3,49.0,41.0,,1500.0,V,,1973.0,supply,True,False,False,False,False,False,False,False,True,False
2141,SIERRA BRAVA,SIERRA BRAVA,336.37,210.0,786.0,,,S,54.0,,-5.64414,39.193449,16.5,54.0,232.0,,140.0,L,,1996.0,hydropower,False,False,False,True,False,False,True,False,True,False
2147,SILES,SILES,706.9,176.0,321.0,,,R,55.0,,-2.612908,38.404352,2.134,,30.5,,298.0,L,,2015.0,irrigation,True,False,False,False,True,False,False,False,False,False
2153,SOBRON,SOBRON,512.8,4670.0,190.0,,,,42.0,,-3.100162,42.767242,2.8,39.0,20.0,,1630.0,V,,1961.0,supply,False,False,False,True,True,False,False,False,True,False
2169,SORIA,SORIA,486.0,,148.0,,,R,132.0,,-15.666912,27.905712,1.24,7.0,32.0,,120.0,L,,1972.0,irrigation,True,False,False,False,True,False,False,False,False,False
2171,SOTIEL,SOTIEL,165.0,168.0,191.0,,,R,45.0,,-6.808133,37.712208,2.4,40.0,28.0,,200.0,L,,1982.0,other,True,False,False,False,False,False,True,False,False,False
2175,LA SOTONERA,LA SOTONERA,420.0,300.0,1632.0,,,S,34.0,,-0.676689,42.102712,18.4,,189.0,,,,,1963.0,supply,False,False,False,True,True,False,False,False,True,False
2180,SUSQUEDA,SUSQUEDA,357.0,1755.0,510.0,,,R,135.0,,2.527156,41.97905,4.63,,233.0,,2800.0,L,,1968.0,supply,False,False,False,True,True,False,False,False,True,False
2188,TAIBILLA,TAIBILLA,956.0,327.0,271.0,,,R,39.0,,-2.262497,38.191952,0.84,4.0,10.0,,510.0,L,,1973.0,supply,False,False,False,False,True,False,False,False,True,False
2190,LA TAJERA,LA TAJERA,964.0,588.0,220.0,,,R,62.0,,-2.617407,40.839139,4.0,52.0,60.0,,173.0,L,,1993.0,irrigation,False,False,True,False,True,False,False,False,True,False
2193,TALARN,TALARN,502.05,2070.0,180.0,30.0,,R,86.0,,0.913324,42.179911,9.73,28.0,227.0,,1800.0,V,,1916.0,hydropower,False,False,False,True,True,False,False,False,False,False
2197,EL TALAVE,EL TALAVE,510.66,788.0,167.0,,,R,47.0,,-1.864693,38.50865,2.7,19.0,32.0,,398.0,V,,1918.0,flood,False,False,True,False,True,False,False,False,False,False
2203,TANES,TANES,495.0,271.0,195.0,,,R,95.0,,-5.427997,43.220674,1.59,14.0,33.0,,426.0,V,,1978.0,supply,False,False,False,True,False,False,False,False,True,False
2222,TERRADETS,TERRADETS,374.02,2620.0,160.0,,,R,47.0,,0.893347,42.048337,3.3,18.0,33.0,,1994.0,V,,1935.0,hydropower,True,False,False,True,False,False,False,False,False,False
2236,LA TOBA,LA TOBA,1156.35,420.0,181.0,,,R/S,40.0,,-1.922135,40.210507,1.58,18.0,12.0,,,,,1925.0,hydropower,True,False,False,True,False,False,False,False,False,False
2960,TORRE DE ABRAHAM,TORRE DE ABRAHAM,675.56,761.0,500.0,,,R,57.0,,-4.253168,39.368478,17.9,32.0,185.0,,175.0,L,,1994.0,irrigation,True,False,False,False,True,False,False,False,False,False
2262,TORRE DEL AGUILA,TORRE DEL AGUILA,55.0,460.0,290.0,,,R,42.0,,-5.758295,37.04271,9.93,34.0,70.0,,700.0,L,,1936.0,irrigation,True,False,False,False,True,False,False,False,False,False
2280,TORREJON TAJO,TORREJON TAJO,247.15,37073.0,300.0,,,R,62.0,,-5.987163,39.833455,10.07,,166.0,,5600.0,V,,1966.0,hydropower,True,False,False,True,False,False,False,False,False,False
2281,TORREJON TIETAR,TORREJON TIETAR,224.0,4436.0,230.0,,,R,34.0,,-5.991154,39.836915,2.2,,12.0,,3000.0,V,,1967.0,hydropower,True,False,False,True,False,False,False,False,False,False
2299,TOUS,TOUS,163.0,17821.0,1024.0,,,R,136.0,,-0.65124,39.132157,10.62,77.0,379.0,,4500.0,L,,1996.0,supply,True,False,False,False,False,False,False,False,True,False
2303,TRANCO DE BEAS,TRANCO DE BEAS,643.0,550.0,290.0,,,R,93.0,,-2.795935,38.174411,18.0,69.0,500.0,,1100.0,V,,1944.0,hydropower,False,False,False,True,True,False,False,False,False,False
2305,LA TRANQUERA,LA TRANQUERA,687.5,1470.0,227.0,,,R,80.0,,-1.797252,41.262558,5.36,38.0,84.0,,1320.0,V,,1959.0,supply,False,False,False,False,True,False,False,False,True,False
2324,ULLDECONA,ULLDECONA,479.83,126.0,167.0,,,R,61.0,,0.23406,40.67089,8.17,8.0,11.0,,400.0,V,,1967.0,irrigation,True,False,False,False,True,False,False,False,False,False
2327,ULLIVARRI,ULLIVARRI,548.0,274.0,535.0,,,R,37.0,,-2.616591,42.929248,14.9,55.0,147.0,,884.0,V,,1957.0,supply,False,False,False,True,True,False,False,False,True,False
2338,URRUNAGA,URRUNAGA,548.0,132.0,490.0,,,R,31.0,,-2.637749,42.963834,7.85,52.0,72.0,,631.0,V,,1957.0,supply,False,False,False,True,True,False,False,False,True,False
2345,UZQUIZA,UZQUIZA,1098.0,150.0,460.0,,,R,65.0,,-3.368769,42.304928,3.13,21.0,75.0,,150.0,L,,1988.0,supply,False,False,False,False,True,False,False,False,True,False
2346,VADIELLO,VADIELLO,748.5,95.0,126.0,,,R,85.0,,-0.278585,42.24137,0.69,13.0,16.0,,360.0,V,,1971.0,supply,False,False,False,False,True,False,False,False,True,False
2348,EL VADO,EL VADO,924.45,382.0,178.0,,,R,69.0,,-3.300962,41.003626,2.6,32.0,56.0,,627.0,V,,1954.0,supply,True,False,False,False,False,False,False,False,True,False
2350,VADOMOJON,VADOMOJON,369.0,1185.0,427.0,,,R,75.0,,-4.227591000000001,37.638126,7.88,64.0,165.0,,998.0,V,,1997.0,other,False,False,False,False,True,False,True,False,False,False
2351,VAL,VAL,629.15,179.0,373.0,,,S,94.0,,-1.786888,41.8762,1.12,11.0,25.0,,362.0,L,,1998.0,supply,True,False,False,False,False,False,False,False,True,False
2362,VALDECAÑAS,VALDECAÑAS,317.0,36540.0,290.0,,,R,98.0,,-5.611696,39.77787,73.0,,1446.0,,3000.0,V,,1964.0,hydropower,False,False,False,True,True,False,False,False,False,False
2366,VALDEINFIERNO,VALDEINFIERNO,700.4,540.0,165.0,,,R,51.0,,-1.964879,37.805444,1.99,11.0,11.0,,673.0,L,,1806.0,flood,False,False,True,False,True,False,False,False,False,False
2816,VALDENTALES,VALDENTALES (AZUD),700.0,,60.0,,,,10.0,,-3.460252,40.869819,0.189,,49.732,,,L,,,,True,False,False,False,False,False,False,False,False,False
2380,VALDEOBISPO,VALDEOBISPO,312.0,2440.0,135.0,,,R,57.0,,-6.250792,40.099609,3.57,46.0,53.0,,2750.0,V,,1965.0,hydropower,False,False,False,True,True,False,False,False,False,False
2430,VALMAYOR,VALMAYOR,834.0,101.0,1215.0,,,R,60.0,,-4.047174,40.535981,7.55,36.0,124.0,,128.0,V,,1975.0,supply,True,False,False,False,False,False,False,False,True,False
2431,VALPARAISO,VALPARAISO,836.0,798.0,540.0,,,R,67.0,,-6.271434,41.993308,12.23,72.0,164.0,,1012.0,V,,1988.0,hydropower,True,False,False,True,False,False,False,False,False,False
2435,VALUENGO,VALUENGO,298.62,1254.0,197.0,,,R/S,33.0,,-6.676598,38.302095,1.5,,19.0,,1779.0,V,,1959.0,hydropower,False,False,False,True,True,False,False,False,False,False
2441,LA VEGA DEL JABALON,LA VEGA DEL JABALON,643.0,1748.0,535.0,,,R,25.0,,-3.786163,38.76091,6.46,29.0,34.0,,675.0,V,,1992.0,supply,True,False,False,False,False,False,False,False,True,False
2449,VELLE,VELLE,110.4,12530.0,195.0,,,R,26.0,,-7.851062,42.357894,2.6,31.0,17.0,,8214.0,V,,1966.0,hydropower,True,False,False,True,False,False,False,False,False,False
2461,VIBORAS,VIBORAS,547.5,182.0,186.0,,,R,51.0,,-4.011726000000001,37.639078,1.69,16.0,19.0,,484.0,L,,1997.0,supply,False,False,False,False,True,False,False,False,True,False
2463,EL VICARIO,EL VICARIO,601.5,16050.0,173.0,,,R,22.0,,-3.996985,39.059183,9.3,42.0,33.0,,1500.0,V,,1973.0,irrigation,True,False,False,False,True,False,False,False,False,False
2469,VILAGUDIN,VILAGUDIN,285.0,52.0,498.0,,,R,33.0,,-8.493118000000003,43.094402,1.69,,18.0,,250.0,L,,1981.0,other,True,False,False,False,False,False,True,False,False,False
2470,VILASOUTO,VILASOUTO,476.0,50.0,336.0,,,R,59.0,,-7.423668,42.660979,1.11,14.0,21.0,,225.0,L,,1969.0,irrigation,True,False,False,False,True,False,False,False,False,False
2479,VILLAFRIA,VILLAFRIA,1118.0,34.0,343.0,,,,46.0,,-4.686192,42.803423,1.025,,12.01,,53.0,L,,2014.0,irrigation,True,False,False,False,True,False,False,False,False,False
2956,VILLALBA DE LOS BARROS,VILLALBA DE LOS BARROS,331.0,343.0,484.0,,,R,46.0,,-6.503348,38.581251,9.67,,106.0,,148.0,L,,2011.0,irrigation,True,False,False,False,True,False,False,False,False,False
2483,VILLALCAMPO,VILLALCAMPO,603.0,62960.0,300.0,,,R,50.0,,-6.085138,41.491349,4.45,63.0,66.0,,822.0,V,,1949.0,hydropower,True,False,False,True,False,False,False,False,False,False
2487,VILLAMECA,VILLAMECA,1009.9,50.0,206.0,,,R,39.0,,-6.072521,42.648638,1.86,17.0,20.0,,174.0,V,,1947.0,hydropower,False,False,False,True,True,False,False,False,False,False
2495,VILLAR DEL REY,VILLAR DEL REY,248.0,1049.0,205.0,,,R,50.0,,-6.866659,39.151962,12.7,,131.0,,450.0,L,,1987.0,supply,False,False,False,True,False,False,False,False,True,False
2496,EL VILLAR,EL VILLAR,906.0,702.0,107.0,,,R,50.0,,-3.562768,40.947475,1.44,20.0,22.0,,266.0,L,,1882.0,supply,False,False,False,True,False,False,False,False,True,False
2502,VILLASECA,VILLASECA,1149.76,89.0,129.0,,,R,40.0,,-6.231565,42.949936,0.04,,168.0,,453.0,L,,1991.0,hydropower,True,False,False,True,False,False,False,False,False,False
2511,LA VIÑUELA,LA VIÑUELA,235.0,119.0,460.0,,,R,96.0,,-4.161716,36.860292,5.65,,170.0,,281.0,L,,1986.0,supply,False,False,False,False,True,False,False,False,True,False
2534,YEGUAS,YEGUAS,254.0,790.0,668.0,,,,86.0,,-4.249649,38.066507,9.48,88.0,229.0,,830.0,V,,1989.0,hydropower,False,False,False,True,True,False,False,False,False,False
3198,YESA,YESA RECRECIDO,520.0,2186.0,482.0,,,R,117.0,,-1.183004,42.615518,48.04,107.0,1525.0,,2258.0,L,,2017.0,supply,False,False,False,True,True,False,False,False,True,False
2539,ZAHARA,ZAHARA-EL GASTOR,357.0,129.0,420.0,,,R,82.0,,-5.389652,36.855519,7.23,40.0,223.0,,515.0,L,,1992.0,irrigation,True,False,False,False,True,False,False,False,False,False
2560,ZUFRE,ZUFRE,254.0,850.0,495.0,,,R,64.0,,-6.278858,37.797848,9.43,,168.0,,1139.0,V,,1991.0,supply,True,False,False,False,False,False,False,False,True,False
2561,ZUJAR,ZUJAR,320.5,370.0,350.0,,,R,60.0,,-5.478659,38.916869,14.49,55.0,302.0,,2173.0,V,,1964.0,supply,False,False,False,True,True,False,False,False,True,False
